placesfiltered = [
{"placeName":"ISLAND VISTA AT ELAND DR @ COVERED SHELTER","descrip":" 6:00 A.M.","latitude":26.6408893,"longitude":-81.8265849},
{"placeName":"GRETCHEN AVE S & LEONARD BLVD S - SOUTHSIDE","descrip":" 6:00 A.M.","latitude":26.598241,"longitude":-81.713788},
{"placeName":"EDISON AVE & CAPRI DR","descrip":" 6:00 A.M.","latitude":26.3530037,"longitude":-81.8064327},
{"placeName":"MARSH LANDING BLVD @ CLUBHOUSE","descrip":" 6:00 A.M.","latitude":26.404503,"longitude":-81.8160753},
{"placeName":"6545 CONVERSE ST","descrip":" 6:00 A.M.","latitude":26.5472733,"longitude":-81.898972},
{"placeName":"5333 29TH ST SW","descrip":" 6:00 A.M.","latitude":26.6116,"longitude":-81.756065},
{"placeName":"1311 SE 19TH ST","descrip":" 6:00 A.M.","latitude":26.6178556,"longitude":-81.9470244},
{"placeName":"ALABAMA RD S & PADDOCK ST","descrip":" 6:00 A.M.","latitude":26.5781906,"longitude":-81.6534012},
{"placeName":"FORUM BLVD & RAVELLO BLVD-DOOR SIDE","descrip":" 6:00 A.M.","latitude":26.6220019,"longitude":-81.7936608},
{"placeName":"FIDDLESTICKS BLVD & CYPRESS PRESERVE PL","descrip":" 6:00 A.M.","latitude":26.5240645,"longitude":-81.8127616},
{"placeName":"ORTIZ AVE & ZANA DR","descrip":" 6:00 A.M.","latitude":26.6441501,"longitude":-81.8117744},
{"placeName":"NW JUANITA PL & NW 18TH ST","descrip":" 6:00 A.M.","latitude":26.689973,"longitude":-81.975214},
{"placeName":"40TH ST SW & CONNIE AVE S-SOUTH SIDE","descrip":" 6:00 A.M.","latitude":26.576723,"longitude":-81.680525},
{"placeName":"OLYMPIA POINTE & ATHENA CT AT CLUBHOUSE WALK-WAY","descrip":" 6:00 A.M.","latitude":26.6225503,"longitude":-81.7610049},
{"placeName":"RICHMOND AVE N & JASMINE RD E","descrip":" 6:00 A.M.","latitude":26.6390415,"longitude":-81.6254864},
{"placeName":"HANCOCK BRIDGE PKWY & SE 12TH AVE","descrip":" 6:00 A.M.","latitude":26.6526199,"longitude":-81.9315769},
{"placeName":"CULTURAL PARK BLVD N & NE VAN LOON LN","descrip":" 6:00 A.M.","latitude":26.6439082,"longitude":-81.9587401},
{"placeName":"SE 23RD PL & SE 10TH TER","descrip":" 6:00 A.M.","latitude":26.631303,"longitude":-81.92536},
{"placeName":"VERONICA S SHOEMAKER BLVD & BELLASOL CIR @ 2nd ENT","descrip":" 6:00 A.M.","latitude":26.6307116,"longitude":-81.8399047},
{"placeName":"LEONARD BLVD S & LEDA AVE S","descrip":" 6:00 A.M.","latitude":26.6000182,"longitude":-81.7340819},
{"placeName":"SIX MILE CYPRESS PKWY & VIA COLOMBA CIR","descrip":" 6:00 A.M.","latitude":26.5661748,"longitude":-81.8297317},
{"placeName":"THREE OAKS PKWY & WINDY HALLOW DR","descrip":" 6:00 A.M.","latitude":26.4528502,"longitude":-81.788925},
{"placeName":"VILLAGEWALK @ LATITUDE DR PARKING AREA","descrip":" 6:00 A.M.","latitude":26.3244056,"longitude":-81.697047},
{"placeName":"RUE LABEAU CIR & FARGO DR/ARUNDEL CIR- *SOUTH END*","descrip":" 6:00 A.M.","latitude":26.5510221,"longitude":-81.6543297},
{"placeName":"GUNNERY RD N & VARSITY LAKES DR","descrip":" 6:00 A.M.","latitude":26.626663,"longitude":-81.7156961},
{"placeName":"628 NW 14TH ST","descrip":" 6:00 A.M.","latitude":26.678179,"longitude":-81.987685},
{"placeName":"SUNNILAND BLVD & 17TH ST W","descrip":" 6:00 A.M.","latitude":26.629999,"longitude":-81.693456},
{"placeName":"2900 27TH ST SW","descrip":" 6:00 A.M.","latitude":26.5889797,"longitude":-81.672954},
{"placeName":"BOLADO PKWY & SE 24TH AVE","descrip":" 6:00 A.M.","latitude":26.6443101,"longitude":-81.9328713},
{"placeName":"MCGREGOR BLVD & KIMBERLY LN-DOOR SIDE","descrip":" 6:00 A.M.","latitude":26.5552063,"longitude":-81.911076},
{"placeName":"PELICAN BLVD & SW 39TH TER-SOUTH BOUND","descrip":" 6:00 A.M.","latitude":26.5708228,"longitude":-81.9824862},
{"placeName":"LEONARD BLVD S & HAVILAND AVE S","descrip":" 6:00 A.M.","latitude":26.6000182,"longitude":-81.7340819},
{"placeName":"THOMAS ST-100 FT E OF PALM AVE","descrip":" 6:00 A.M.","latitude":26.6402225,"longitude":-81.856298},
{"placeName":"CORONADO PKWY & SE 41ST ST-SOUTH BOUND","descrip":" 6:00 A.M.","latitude":26.5622139,"longitude":-81.9578777},
{"placeName":"PEBBLE BROOK BLVD & GATEWAY BLVD - STONEYBROOK","descrip":" 6:00 A.M.","latitude":26.6006744,"longitude":-81.7543009},
{"placeName":"MAIDA LN & BRANDENBURG LN","descrip":" 6:00 A.M.","latitude":26.518874,"longitude":-81.883177},
{"placeName":"WINKLER EXT @ SIENNA APTS","descrip":" 6:00 A.M.","latitude":26.6058186,"longitude":-81.8362749},
{"placeName":"EVEREST PKWY & SE 23RD AVE-EAST BOUND","descrip":" 6:00 A.M.","latitude":26.6067266,"longitude":-81.9314027}]
